[{"category": "Cocktail Bar", "name": "The 1125", "contact": {}, "location": {"distance": 802, "city": "New York", "cc": "US", "country": "United States", "state": "NY", "formattedAddress": ["New York, NY", "United States"], "lat": 40.774469978400354, "lng": -73.95962310306663, "mayNotNeedAddress": false}, "stats": {"tipCount": 4, "checkinsCount": 241, "usersCount": 7}, "id": "51fc4c5d498ed77bdb0cff2a"}, {"category": "Cocktail Bar", "name": "socialite", "contact": {}, "location": {"distance": 739, "city": "jakarta", "cc": "US", "country": "United States", "postalCode": "10022", "state": "NY", "formattedAddress": ["pasar minggu", "jakarta, NY 10022", "United States"], "address": "pasar minggu", "lat": 40.76217, "lng": -73.966129, "mayNotNeedAddress": false}, "stats": {"tipCount": 1, "checkinsCount": 78, "usersCount": 67}, "id": "4cd8ca6cfb718eecb8034e88"}, {"category": "Cocktail Bar", "name": "Library Bar at Loews Regency Hotel", "url": "http://www.loewshotels.com/en/Regency-Hotel/dining/lounges", "contact": {"phone": "2123394050", "twitter": "loewsregency", "formattedPhone": "(212) 339-4050"}, "location": {"distance": 575, "city": "New York", "cc": "US", "country": "United States", "postalCode": "10065", "state": "NY", "formattedAddress": ["540 Park Ave (E 61st St)", "New York, NY 10065", "United States"], "crossStreet": "E 61st St", "address": "540 Park Ave", "lat": 40.764421348741976, "lng": -73.96914482116699, "mayNotNeedAddress": false}, "stats": {"tipCount": 1, "checkinsCount": 392, "usersCount": 272}, "id": "4d9cee1448b6224b4939199f"}, {"category": "Cocktail Bar", "name": "T-Bar Steak & Lounge", "url": "http://www.tbarnyc.com", "contact": {"phone": "2127720404", "formattedPhone": "(212) 772-0404"}, "location": {"distance": 511, "city": "New York", "cc": "US", "country": "United States", "postalCode": "10021", "state": "NY", "formattedAddress": ["1278 3rd Ave (at 73rd St.)", "New York, NY 10021", "United States"], "crossStreet": "at 73rd St.", "address": "1278 3rd Ave", "lat": 40.77066163966178, "lng": -73.9599502738319, "mayNotNeedAddress": false}, "stats": {"tipCount": 31, "checkinsCount": 2151, "usersCount": 1090}, "id": "4b81b128f964a5202bb830e3"}, {"category": "Cocktail Bar", "name": "Bar Italia", "url": "http://www.baritaliamadison.com", "contact": {"phone": "9175466676", "formattedPhone": "(917) 546-6676"}, "location": {"distance": 266, "city": "New York", "cc": "US", "country": "United States", "postalCode": "10065", "state": "NY", "formattedAddress": ["768 Madison Ave (65th Street)", "New York, NY 10065", "United States"], "crossStreet": "65th Street", "address": "768 Madison Ave", "lat": 40.767788, "lng": -73.968361, "mayNotNeedAddress": false}, "attributes": {"Take-out": "No", "Accepts Credit Cards": "Yes", "Alcohol": "Full Bar", "Noise Level": "Average", "Parking": "Street", "Good For": "Brunch, Dinner", "Attire": "Dressy", "Delivery": "No", "Bike Parking": "No", "Has TV": "Yes", "Outdoor Seating": "Yes", "Takes Reservations": "Yes", "Ambience": "Trendy", "Waiter Service": "Yes", "Wi-Fi": "No", "Good for Kids": "No", "Good for Groups": "Yes"}, "stats": {"tipCount": 35, "checkinsCount": 1591, "usersCount": 1224}, "id": "4d840360d5fab60c7b25d99b"}, {"category": "Cocktail Bar", "name": "Bar Pleiades", "url": "http://www.danielnyc.com/BarPleiades.html", "contact": {"phone": "2127722600", "formattedPhone": "(212) 772-2600"}, "location": {"distance": 629, "city": "New York", "cc": "US", "country": "United States", "postalCode": "10021", "state": "NY", "formattedAddress": ["20 E 76th St (at Madison Ave)", "New York, NY 10021", "United States"], "crossStreet": "at Madison Ave", "address": "20 E 76th St", "lat": 40.774293, "lng": -73.963752, "mayNotNeedAddress": false}, "attributes": {"Best Nights": "Fri, Sat, Sun", "Alcohol": "Full Bar", "Good For Dancing": "No", "Noise Level": "Average", "Parking": "Street", "Has Pool Table": "Yes", "Music": "Background", "Happy Hour": "No", "Bike Parking": "Yes", "Has TV": "No", "Outdoor Seating": "No", "Coat Check": "Yes", "Ambience": "Upscale", "Smoking": "No", "Accepts Credit Cards": "Yes", "Good for Groups": "Yes", "Wheelchair Accessible": "Yes"}, "stats": {"tipCount": 25, "checkinsCount": 1627, "usersCount": 1185}, "id": "4b316f99f964a520f10625e3"}, {"category": "Cocktail Bar", "name": "Lexington Bar & Books", "url": "http://www.barandbooks.cz/lexington/", "contact": {"phone": "2127173902", "formattedPhone": "(212) 717-3902"}, "location": {"distance": 400, "city": "New York", "cc": "US", "country": "United States", "postalCode": "10021", "state": "NY", "formattedAddress": ["1020 Lexington Ave (at E 73rd St.)", "New York, NY 10021", "United States"], "crossStreet": "at E 73rd St.", "address": "1020 Lexington Ave", "lat": 40.77107228328751, "lng": -73.96180997080033, "mayNotNeedAddress": false}, "attributes": {"Alcohol": "Full Bar", "Noise Level": "Quiet", "Music": "Background", "Attire": "Dressy", "Ambience": "Classy", "Good for Kids": "No", "Good for Groups": "No", "Wheelchair Accessible": "No", "Good For Dancing": "No", "Delivery": "No", "Best Nights": "Tue, Wed, Thu", "Coat Check": "Yes", "Smoking": "Yes", "Accepts Credit Cards": "Yes", "Take-out": "No", "Has Pool Table": "No", "Happy Hour": "Yes", "Outdoor Seating": "No", "Takes Reservations": "Yes", "Waiter Service": "Yes", "Wi-Fi": "No", "Caters": "No", "Bike Parking": "No", "Good For": "Late Night", "Parking": "Street", "Has TV": "No"}, "stats": {"tipCount": 27, "checkinsCount": 1848, "usersCount": 1207}, "id": "41842b00f964a520e51d1fe3"}, {"category": "Cocktail Bar", "name": "Seamstress", "url": "http://www.seamstressny.com", "contact": {"facebookName": "Seamstress NY", "twitter": "seamstress_ny", "phone": "2122888033", "facebook": "1570127703202010", "formattedPhone": "(212) 288-8033", "facebookUsername": "seamstressny"}, "location": {"distance": 881, "city": "New York", "cc": "US", "country": "United States", "postalCode": "10021", "state": "NY", "formattedAddress": ["339 E 75th St (btwn 1st & 2nd Ave)", "New York, NY 10021", "United States"], "crossStreet": "btwn 1st & 2nd Ave", "address": "339 E 75th St", "lat": 40.77005321000351, "lng": -73.95517467359709, "mayNotNeedAddress": false}, "attributes": {"Accepts Apple Pay": "No", "Alcohol": "Full Bar", "Noise Level": "Average", "Music": "Background", "Attire": "Casual", "Ambience": "Trendy", "Good for Kids": "No", "Good for Groups": "Yes", "Good For Dancing": "No", "Delivery": "No", "Best Nights": "Thu, Fri, Sat", "Coat Check": "Yes", "Smoking": "No", "Accepts Credit Cards": "Yes", "Take-out": "Yes", "Has Pool Table": "No", "Happy Hour": "Yes", "Outdoor Seating": "No", "Takes Reservations": "Yes", "Waiter Service": "Yes", "Wi-Fi": "No", "Caters": "No", "Bike Parking": "Yes", "Good For": "Late Night", "Parking": "Street", "Has TV": "No"}, "stats": {"tipCount": 33, "checkinsCount": 1424, "usersCount": 1042}, "id": "54b5c278498e268f680d024b"}]